$PASHR,085951.200,0.000,T,0.000,0.000,,0.000,0.000,0.000,1,1*3C$GPGGA,085951.40,3732.83718350,N,12703.09823103,E,1,08,1.6,76.420,M,23.049,M,,*5F
$PASHR,085951.400,0.000,T,0.000,0.000,,0.000,0.000,0.000,1,1*3A
$GPGGA,085951.60,3732.83718123,N,12703.09822997,E,1,08,1.6,76.418,M,23.049,M,,*54
$PASHR,085951.600,0.000,T,0.000,0.000,,0.000,0.000,0.000,1,1*38
$GPGGA,085951.80,3732.83718539,N,12703.09823239,E,1,08,1.6,76.441,M,23.049,M,,*57
$PASHR,085951.800,0.000,T,0.000,0.000,,0.000,0.000,0.000,1,1*36
$GPGGA,085952.00,3732.83718426,N,12703.09823623,E,1,07,1.8,76.474,M,23.049,M,,*5B
$PASHR,085952.000,0.000,T,0.000,0.000,,0.000,0.000,0.000,1,1*3D
$GPGGA,085952.20,3732.83718631,N,12703.09824814,E,1,08,1.6,76.501,M,23.049,M,,*52
$PASHR,085952.200,0.000,T,0.000,0.000,,0.000,0.000,0.000,1,1*3F
$GPGGA,085952.40,3732.83719000,N,12703.09825839,E,1,08,1.6,76.538,M,23.049,M,,*55
$PASHR,085952.400,0.000,T,0.000,0.000,,0.000,0.000,0.000,1,1*39
$GPGGA,085952.60,3732.83719433,N,12703.09825989,E,1,08,1.6,76.553,M,23.049,M,,*54
$PASHR,085952.600,0.000,T,0.000,0.000,,0.000,0.000,0.000,1,1*3B
$GPGGA,085952.80,3732.83719667,N,12703.09825541,E,1,08,1.6,76.548,M,23.049,M,,*5B
$PASHR,085952.800,0.000,T,0.000,0.000,,0.000,0.000,0.000,1,1*35
$GPGGA,085953.00,3732.83719773,N,12703.09825389,E,1,08,1.6,76.561,M,23.049,M,,*5F
$PASHR,085953.000,0.000,T,0.000,0.000,,0.000,0.000,0.000,1,1*3C
$GPGGA,085953.20,3732.83719711,N,12703.09824994,E,1,08,1.6,76.569,M,23.049,M,,*56
$PASHR,085953.200,0.000,T,0.000,0.000,,0.000,0.000,0.000,1,1*3E
$GPGGA,085953.40,3732.83719440,N,12703.09824388,E,1,08,1.6,76.563,M,23.049,M,,*5A
$PASHR,085953.400,0.000,T,0.000,0.000,,0.000,0.000,0.000,1,1*38
$GPGGA,085953.60,3732.83718768,N,12703.09822656,E,1,07,1.8,76.536,M,23.049,M,,*51
$PASHR,085953.600,0.000,T,0.000,0.000,,0.000,0.000,0.000,1,1*3A
$GPGGA,085953.80,3732.83717946,N,12703.09820816,E,1,07,1.8,76.512,M,23.049,M,,*5C
$PASHR,085953.800,0.000,T,0.000,0.000,,0.000,0.000,0.000,1,1*34
$GPGGA,085954.00,3732.83718654,N,12703.09822154,E,1,08,1.6,76.546,M,23.049,M,,*5D
$PASHR,085954.000,0.000,T,0.000,0.000,,0.000,0.000,0.000,1,1*3B
$GPGGA,085954.20,3732.83718721,N,12703.09822356,E,1,07,1.8,76.567,M,23.049,M,,*5E
$PASHR,085954.200,0.000,T,0.000,0.000,,0.000,0.000,0.000,1,1*39
$GPGGA,085954.40,3732.83718507,N,12703.09822615,E,1,08,1.6,76.580,M,23.049,M,,*54
$PASHR,085954.400,0.000,T,0.000,0.000,,0.000,0.000,0.000,1,1*3F
$GPGGA,085954.60,3732.83718447,N,12703.09822370,E,1,08,1.6,76.547,M,23.049,M,,*5E
$PASHR,085954.600,0.000,T,0.000,0.000,,0.000,0.000,0.000,1,1*3D
$GPGGA,085954.80,3732.83718303,N,12703.09821288,E,1,08,1.6,76.518,M,23.049,M,,*58
$PASHR,085954.800,0.000,T,0.000,0.000,,0.000,0.000,0.000,1,1*33
$GPGGA,085955.00,3732.83718355,N,12703.09821659,E,1,08,1.6,76.515,M,23.049,M,,*57
$PASHR,085955.000,0.000,T,0.000,0.000,,0.000,0.000,0.000,1,1*3A
$GPGGA,085955.20,3732.83718714,N,12703.09822085,E,1,08,1.6,76.514,M,23.049,M,,*51
$PASHR,085955.200,0.000,T,0.000,0.000,,0.000,0.000,0.000,1,1*38
$GPGGA,085955.40,3732.83718902,N,12703.09822436,E,1,08,1.6,76.504,M,23.049,M,,*53
$PASHR,085955.400,0.000,T,0.000,0.000,,0.000,0.000,0.000,1,1*3E
$GPGGA,085955.60,3732.83718950,N,12703.09820918,E,1,08,1.6,76.457,M,23.049,M,,*52
$PASHR,085955.600,0.000,T,0.000,0.000,,0.000,0.000,0.000,1,1*3C
$GPGGA,085955.80,3732.83719336,N,12703.09821248,E,1,08,1.6,76.459,M,23.049,M,,*56
$PASHR,085955.800,0.000,T,0.000,0.000,,0.000,0.000,0.000,1,1*32
$GPGGA,085956.00,3732.83719811,N,12703.09823251,E,1,08,1.6,76.501,M,23.049,M,,*55
$PASHR,085956.000,0.000,T,0.000,0.000,,0.000,0.000,0.000,1,1*39
$GPGGA,085956.20,3732.83720205,N,12703.09825074,E,1,08,1.6,76.543,M,23.049,M,,*57
$PASHR,085956.200,0.000,T,0.000,0.000,,0.000,0.000,0.000,1,1*3B
$GPGGA,085956.40,3732.83720585,N,12703.09825326,E,1,08,1.6,76.551,M,23.049,M,,*59
$PASHR,085956.400,0.000,T,0.000,0.000,,0.000,0.000,0.000,1,1*3D
$GPGGA,085956.60,3732.83721226,N,12703.09826798,E,1,08,1.6,76.575,M,23.049,M,,*50
$PASHR,085956.600,0.000,T,0.000,0.000,,0.000,0.000,0.000,1,1*3F
$GPGGA,085956.80,3732.83721369,N,12703.09826156,E,1,09,1.6,76.541,M,23.049,M,,*56
$PASHR,085956.800,0.000,T,0.000,0.000,,0.000,0.000,0.000,1,1*31
$GPGGA,085957.00,3732.83721996,N,12703.09825936,E,1,09,1.6,76.526,M,23.049,M,,*59
$GPGGA,085957.20,3732.83722468,N,12703.09825812,E,1,09,1.6,76.515,M,23.049,M,,*53
$PASHR,085957.200,0.000,T,0.000,0.000,,0.000,0.000,0.000,1,1*3A
$GPGGA,085957.40,3732.83722414,N,12703.09825733,E,1,09,1.6,76.508,M,23.049,M,,*5E
$PASHR,085957.400,0.000,T,0.000,0.000,,0.000,0.000,0.000,1,1*3C
$GPGGA,085957.60,3732.83722403,N,12703.09825912,E,1,09,1.6,76.518,M,23.049,M,,*56
$PASHR,085957.600,0.000,T,0.000,0.000,,0.000,0.000,0.000,1,1*3E
$GPGGA,085957.80,3732.83721874,N,12703.09826027,E,1,08,1.8,76.539,M,23.049,M,,*57
$PASHR,085957.800,0.000,T,0.000,0.000,,0.000,0.000,0.000,1,1*30
$PTNL,EVT,085958.006133,2,3,1932,3,18*7F
$GPGGA,085958.00,3732.83722125,N,12703.09826358,E,1,09,1.6,76.545,M,23.049,M,,*51
$PASHR,085958.000,0.000,T,0.000,0.000,,0.000,0.000,0.000,1,1*37
$GPGGA,085958.20,3732.83722368,N,12703.09825801,E,1,09,1.6,76.527,M,23.049,M,,*58
$PASHR,085958.200,0.000,T,0.000,0.000,,0.000,0.000,0.000,1,1*35
$GPGGA,085958.40,3732.83722093,N,12703.09825888,E,1,09,1.6,76.525,M,23.049,M,,*5A
$PASHR,085958.400,0.000,T,0.000,0.000,,0.000,0.000,0.000,1,1*33